City,Lat,Lng,Max Temp,Humidity,Cloudiness,Wind Speed,Country,Date
Cidreira,-30.18,-50.21,62.58,91,0,16.8,BR,1599096251
Dzilam González,21.28,-88.93,79.97,86,99,8.1,MX,1599096251
Albany,42.6,-73.97,73.99,90,100,6.26,US,1599096114
Butaritari,3.07,172.79,83.39,73,100,13.13,KI,1599096251
Castro,-24.79,-50.01,57.85,96,7,5.95,BR,1599095993
Tasiilaq,65.61,-37.64,39.2,94,97,8.05,GL,1599096252
Saskylakh,71.92,114.08,48.0,73,100,7.05,RU,1599096252
Sakakah,29.97,40.21,82.4,18,0,8.05,SA,1599096252
Ventspils,57.39,21.56,59.0,100,75,2.24,LV,1599096252
Bluff,-46.6,168.33,52.25,63,89,7.02,NZ,1599096253
Bara,10.37,10.73,72.34,94,100,8.14,NG,1599096253
Pisco,-13.7,-76.22,62.01,82,0,3.36,PE,1599096253
Umm Hājar,13.3,19.7,73.56,81,100,3.6,TD,1599096253
Vaini,-21.2,-175.2,73.4,88,75,11.41,TO,1599096254
Pevek,69.7,170.31,37.11,82,98,10.27,RU,1599096254
Yangi Marg`ilon,40.43,71.72,75.2,36,100,6.93,UZ,1599096254
Deputatsky,69.3,139.9,38.52,75,82,9.4,RU,1599096254
Riohacha,11.54,-72.91,80.6,82,100,8.39,CO,1599096243
Rikitea,-23.12,-134.97,70.41,83,4,18.1,PF,1599096255
Longyearbyen,78.22,15.64,39.2,86,75,6.93,SJ,1599096255
Sitka,57.05,-135.33,53.6,93,90,4.7,US,1599096255
Narsaq,60.92,-46.05,44.6,48,0,4.7,GL,1599096255
Katsuura,35.13,140.3,87.8,94,75,11.41,JP,1599096256
Ribeira Grande,38.52,-28.7,73.47,80,91,8.3,PT,1599096256
Moyale,3.52,39.06,63.79,62,0,6.93,KE,1599096256
Hamilton,39.18,-84.53,78.01,83,90,4.7,US,1599095998
East London,-33.02,27.91,65.14,82,57,5.17,ZA,1599096257
Thompson,55.74,-97.86,50.0,71,40,6.93,CA,1599096155
Ushuaia,-54.8,-68.3,37.4,74,75,0.81,AR,1599096163
Ngunguru,-35.62,174.5,57.0,8,0,7.0,NZ,1599096257
Khovd,48.01,91.64,64.38,35,0,0.27,MN,1599096257
Tuktoyaktuk,69.45,-133.04,53.6,87,75,5.82,CA,1599096257
Northam,51.03,-4.22,64.99,98,100,11.01,GB,1599096258
Abu Kamal,34.45,40.92,83.25,17,0,4.81,SY,1599096258
Cape Town,-33.93,18.42,60.01,87,75,14.99,ZA,1599096258
Hilo,19.73,-155.09,84.2,54,1,10.29,US,1599096017
Hermanus,-34.42,19.23,55.99,95,60,8.99,ZA,1599096258
Qaanaaq,77.48,-69.36,24.94,78,0,5.91,GL,1599096259
Jamestown,42.1,-79.24,70.0,93,1,6.93,US,1599096259
Oodweyne,9.41,45.06,73.53,56,1,9.42,SO,1599096259
Stillwater,36.12,-97.06,80.6,78,75,4.21,US,1599096126
Lázaro Cárdenas,17.96,-102.2,79.74,81,0,5.75,MX,1599096259
Saint Paul Harbor,57.79,-152.41,55.4,76,90,5.82,US,1599096260
Bilma,18.69,12.92,88.66,42,0,9.55,NE,1599096260
São Félix do Xingu,-6.64,-51.99,76.71,39,0,1.5,BR,1599096260
Fairbanks,64.84,-147.72,57.2,58,20,4.7,US,1599096109
Chui,-33.7,-53.46,61.29,94,100,14.18,UY,1599096261
Aksarka,66.56,67.8,44.26,93,100,11.72,RU,1599096261
Provideniya,64.38,-173.3,48.2,66,75,6.71,RU,1599096261
Cururupu,-1.83,-44.87,74.1,92,28,3.62,BR,1599096261
Ryōtsu-minato,38.08,138.43,93.2,59,0,6.93,JP,1599096262
Ostrovnoy,68.05,39.51,49.96,79,100,17.31,RU,1599096262
Varhaug,58.61,5.65,57.0,93,22,4.0,NO,1599096262
Lüderitz,-26.65,15.16,53.56,57,0,5.68,NA,1599096262
Kaitangata,-46.28,169.85,55.99,54,12,10.0,NZ,1599096262
Kerema,-7.96,145.78,82.22,78,17,4.14,PG,1599096263
Port Alfred,-33.59,26.89,63.23,41,1,10.36,ZA,1599096263
Assiniboia,49.63,-105.98,60.67,42,35,24.94,CA,1599096263
Busselton,-33.65,115.33,57.99,81,100,3.0,AU,1599096263
Punta Arenas,-53.15,-70.92,35.6,88,35,6.93,CL,1599096194
Saint-Philippe,-21.36,55.77,66.2,72,75,4.7,RE,1599096264
Chiguayante,-36.92,-73.02,50.0,81,75,6.93,CL,1599096264
San Patricio,19.22,-104.7,86.0,79,20,9.17,MX,1599096264
Souillac,-20.52,57.52,68.0,94,75,3.36,MU,1599096264
Vila Franca do Campo,37.72,-25.43,73.4,78,75,4.7,PT,1599096264
Kapaa,22.08,-159.32,82.99,69,75,12.75,US,1599096265
Mataura,-46.19,168.86,57.67,43,0,3.22,NZ,1599096265
Nha Trang,12.25,109.18,86.0,79,40,3.36,VN,1599096061
Palmer,42.16,-72.33,71.01,100,90,6.93,US,1599096265
George Town,5.41,100.34,82.4,88,20,1.12,MY,1599096121
Coquimbo,-29.95,-71.34,51.8,87,4,4.7,CL,1599096266
Mossamedes,-15.2,12.15,63.3,83,0,3.74,AO,1599096266
Nouadhibou,20.93,-17.03,77.0,61,0,9.17,MR,1599096266
New Norfolk,-42.78,147.06,60.01,57,0,3.0,AU,1599096266
Zhangye,38.93,100.45,70.09,22,0,1.23,CN,1599096267
Portree,57.41,-6.19,55.99,92,77,17.0,GB,1599096267
Avarua,-21.21,-159.78,78.8,78,0,13.87,CK,1599096267
Alofi,-19.06,-169.92,84.2,37,75,13.87,NU,1599096268
Huarmey,-10.07,-78.15,60.13,84,0,8.19,PE,1599096268
Khatanga,71.97,102.5,46.85,69,100,17.4,RU,1599096268
Dingle,11.0,122.67,84.72,76,97,1.1,PH,1599096264
Dali,25.7,100.18,68.22,71,78,2.84,CN,1599096268
Pedernales,18.04,-71.74,83.08,70,0,7.31,DO,1599096269
Kapiri Mposhi,-13.97,28.68,54.84,89,0,6.98,ZM,1599096269
Esperance,-33.87,121.9,55.4,71,46,13.87,AU,1599096269
Carnarvon,-24.87,113.63,66.2,59,11,17.22,AU,1599096269
Beringovskiy,63.05,179.32,47.55,63,59,8.59,RU,1599096270
Upernavik,72.79,-56.15,38.43,76,88,4.36,GL,1599096270
Hobart,-42.88,147.33,60.01,54,40,5.82,AU,1599096018
Kumul,42.8,93.45,80.2,15,0,10.04,CN,1599096270
Novikovo,51.15,37.89,64.81,68,0,11.97,RU,1599096270
Havøysund,71.0,24.66,51.8,76,100,9.17,NO,1599096271
Alyangula,-13.85,136.42,86.0,45,42,12.75,AU,1599096271
Huilong,31.81,121.66,81.0,64,0,1.99,CN,1599096271
Christiana,-27.91,25.16,50.95,85,0,9.62,ZA,1599096271
Kruisfontein,-34.0,24.73,60.01,40,0,4.0,ZA,1599096272
Kalat,29.02,66.59,60.17,31,0,2.13,PK,1599096272
Tiksi,71.69,128.87,40.66,80,16,12.97,RU,1599096272
Rovaniemi,66.5,25.72,46.4,93,0,8.05,FI,1599096272
Chegdomyn,51.12,133.02,69.42,74,99,2.33,RU,1599096273
Castlemaine,-37.07,144.22,61.0,64,0,7.0,AU,1599096273
Pacific Grove,36.62,-121.92,69.8,60,1,10.29,US,1599096273
Nikolskoye,59.7,30.79,54.0,87,35,8.95,RU,1599096273
Port Shepstone,-30.74,30.45,62.92,72,62,9.95,ZA,1599096273
Krasnoarmeysk,51.02,45.7,57.0,71,0,5.99,RU,1599096274
Norrtälje,59.76,18.7,62.01,89,100,5.01,SE,1599096274
Colonial Heights,37.27,-77.41,80.6,88,1,3.36,US,1599096274
Decatur,39.84,-88.95,75.2,83,1,4.7,US,1599096058
Abu Samrah,35.3,37.18,75.45,68,0,1.36,SY,1599096274
Ortaköy,38.74,34.04,68.0,34,0,8.05,TR,1599096275
Talnakh,69.49,88.4,37.4,100,90,8.95,RU,1599096275
Praia da Vitória,38.73,-27.07,72.0,88,24,5.68,PT,1599096247
Yabrūd,33.97,36.66,68.0,68,0,4.41,SY,1599096275
Inhambane,-23.86,35.38,63.34,71,23,7.65,MZ,1599096275
Jacala,21.02,-99.18,64.98,99,8,3.33,MX,1599096276
Leeton,-34.57,146.4,69.8,35,62,1.12,AU,1599096276
Paka,4.64,103.44,82.4,83,20,2.24,MY,1599096276
Pesaro,43.9,12.89,68.0,71,0,3.0,IT,1599096276
Bonavista,48.65,-53.11,55.99,70,100,5.01,CA,1599096276
Chokurdakh,70.63,147.92,43.45,63,16,10.63,RU,1599096277
Kiryat Gat,31.61,34.76,79.0,76,0,1.77,IL,1599096277
Asău,46.43,26.4,64.0,81,84,2.93,RO,1599096277
Cherskiy,68.75,161.3,46.24,56,1,10.27,RU,1599096277
Labuhan,-6.88,112.21,81.16,76,82,7.4,ID,1599096278
Barrow,71.29,-156.79,39.2,86,90,19.46,US,1599096259
Vaxjo,56.88,14.81,55.4,100,78,6.93,SE,1599096278
Nuuk,64.18,-51.72,44.6,60,9,11.41,GL,1599096278
Oddur,4.12,43.89,70.77,69,88,15.26,SO,1599096279
Rincon,32.3,-81.24,84.2,74,90,4.5,US,1599096279
Sørland,67.67,12.69,57.02,73,83,19.13,NO,1599096279
Koslan,63.46,48.9,38.62,91,0,3.31,RU,1599096280
Tabou,4.42,-7.35,75.2,88,70,8.25,CI,1599096280
Tommot,58.96,126.29,61.79,53,0,4.0,RU,1599096280
Puerto Ayora,-0.74,-90.35,66.0,89,91,1.99,EC,1599096280
Arraial do Cabo,-22.97,-42.03,70.75,90,0,15.73,BR,1599096281
Hithadhoo,-0.6,73.08,82.08,73,100,11.41,MV,1599096281
Daru,-9.08,143.21,79.65,85,50,18.59,PG,1599096281
Bengkulu,-3.8,102.27,78.94,87,100,9.62,ID,1599096281
Sitrah,26.15,50.62,89.6,70,0,3.36,BH,1599096282
Bredasdorp,-34.53,20.04,57.2,82,18,8.05,ZA,1599096282
Fortuna,40.6,-124.16,62.01,87,1,11.41,US,1599096063
Adrar,20.5,-10.07,84.0,49,100,12.37,MR,1599096282
Owando,-0.48,15.9,71.62,94,6,2.42,CG,1599096282
Inta,66.03,60.17,41.36,87,71,17.4,RU,1599096283
Yekaterinoslavka,50.37,129.11,63.57,90,100,7.74,RU,1599096283
Keetmanshoop,-26.58,18.13,42.13,53,0,6.4,NA,1599096283
Kholodnyy,62.72,147.95,43.39,77,100,1.57,RU,1599096283
Margate,51.38,1.39,61.0,80,100,5.01,GB,1599096283
Santa Rosalía,27.32,-112.28,85.1,66,1,3.47,MX,1599096284
Ayan,56.45,138.17,52.92,87,100,3.44,RU,1599096284
Oranjemund,-28.55,16.43,52.7,59,0,5.7,NA,1599096284
Te Anau,-45.42,167.72,52.48,61,99,2.59,NZ,1599096285
Cabo San Lucas,22.89,-109.91,84.0,69,20,10.29,MX,1599096285
Padang,-0.95,100.35,80.87,74,96,2.91,ID,1599096285
Māngrol,21.12,70.12,79.11,86,100,6.51,IN,1599096285
Willowmore,-33.29,23.49,47.7,63,0,8.63,ZA,1599096285
Emerald,-23.53,148.17,78.8,36,75,12.75,AU,1599096286
Iqaluit,63.75,-68.51,39.2,100,90,12.75,CA,1599096286
Luanda,-8.84,13.23,71.6,88,75,3.36,AO,1599096171
Alghero,40.56,8.32,59.0,100,0,2.24,IT,1599096286
Hualmay,-11.1,-77.61,59.27,85,4,9.62,PE,1599096286
Saint-Joseph,-21.37,55.62,66.2,72,75,4.7,RE,1599096287
Kununurra,-15.77,128.73,87.8,41,0,4.7,AU,1599096287
Cilegon,-6.02,106.05,78.8,78,20,5.82,ID,1599096287
Ballina,-28.87,153.57,77.0,68,75,8.05,AU,1599096287
Miles City,46.41,-105.84,66.2,37,1,25.28,US,1599096287
Torbay,47.67,-52.73,55.99,71,90,12.75,CA,1599096288
Peterhead,57.51,-1.8,59.0,93,90,4.7,GB,1599096288
Hasaki,35.73,140.83,89.01,74,75,19.46,JP,1599096288
Sisimiut,66.94,-53.67,41.68,75,64,3.69,GL,1599096288
San Vicente,-26.62,-54.13,62.51,98,79,2.33,AR,1599096289
Kyren,51.68,102.14,58.8,68,40,0.81,RU,1599096289
Kontagora,10.4,5.47,69.53,98,16,2.59,NG,1599096289
Biak,-0.91,122.88,82.22,71,89,6.53,ID,1599096289
Ponta do Sol,32.67,-17.1,71.6,73,40,9.17,PT,1599096290
Weihai,37.5,122.11,74.55,69,0,25.41,CN,1599096290
Christchurch,-43.53,172.63,57.99,47,0,2.24,NZ,1599096025
Kidal,18.44,1.41,80.46,66,100,16.53,ML,1599096276
Andrushivka,50.02,29.02,63.16,79,100,10.29,UA,1599096290
Kosh-Agach,50.0,88.67,53.56,52,0,0.98,RU,1599096290
Linjiang,41.81,126.91,63.27,89,100,5.61,CN,1599096291
Manokwari,-0.87,134.08,82.78,68,100,5.39,ID,1599096227
Libreville,0.39,9.45,75.2,94,75,9.17,GA,1599096291
Lebu,-37.62,-73.65,46.8,79,100,5.99,CL,1599096291
Bourail,-21.57,165.48,74.88,48,0,11.7,NC,1599096291
Nome,64.5,-165.41,50.0,66,75,16.11,US,1599096292
Qasigiannguit,68.82,-51.19,39.2,82,91,4.7,GL,1599096292
Januária,-15.48,-44.37,71.87,42,0,7.58,BR,1599096292
Comodoro Rivadavia,-45.87,-67.5,51.8,50,0,13.87,AR,1599096292
Glenwood Springs,39.55,-107.32,77.0,24,1,6.93,US,1599096050
Zhangaözen,43.3,52.8,75.94,24,0,9.13,KZ,1599096293
Ketchikan,55.34,-131.65,55.4,93,90,8.05,US,1599096293
Darhan,49.49,105.92,61.23,66,100,2.48,MN,1599096293
Vao,-22.67,167.48,66.97,71,28,21.81,NC,1599096293
Beloha,-25.17,45.05,57.07,69,4,7.72,MG,1599096293
Aripuanã,-9.17,-60.63,81.41,38,70,0.72,BR,1599096294
Ponta do Sol,32.67,-17.1,71.6,73,40,9.17,PT,1599096290
Kapoeta,4.77,33.59,73.31,68,43,3.67,SS,1599096294
Port Elizabeth,-33.92,25.57,53.6,54,0,8.05,ZA,1599096124
Atasū,48.68,71.64,69.13,30,0,7.45,KZ,1599096294
Medvedka,61.16,46.39,43.9,93,0,2.42,RU,1599096294
Hofn,64.25,-15.21,50.59,80,100,16.4,IS,1599096295
Chara,56.91,118.26,58.91,58,0,0.65,RU,1599096295
Honiara,-9.43,159.95,91.4,59,20,10.29,SB,1599096220
Jiexiu,37.02,111.91,70.29,35,0,6.49,CN,1599096295
North Myrtle Beach,33.82,-78.68,86.0,89,1,12.75,US,1599096174
Birao,10.28,22.79,67.33,97,100,4.23,CF,1599096296
Vardø,70.37,31.11,52.11,80,95,17.27,NO,1599096296
Opuwo,-18.06,13.84,58.78,34,0,3.85,NA,1599096296
Grindavik,63.84,-22.43,46.4,81,75,21.92,IS,1599096296
Menongue,-14.66,17.69,63.3,61,8,3.06,AO,1599096296
George Town,5.41,100.34,82.4,88,20,1.12,MY,1599096121
Nipawin,53.37,-104.0,50.0,100,75,8.05,CA,1599096297
Ariquemes,-9.91,-63.04,81.12,45,8,2.59,BR,1599096257
Japura,-0.32,102.35,77.13,90,96,2.95,ID,1599096297
Muleba,-1.84,31.65,70.97,50,0,10.11,TZ,1599096297
Olavarría,-36.89,-60.32,45.0,89,100,1.01,AR,1599096298
Paita,-5.09,-81.11,61.84,80,0,19.22,PE,1599096298
Suntar,62.14,117.63,58.93,80,70,7.99,RU,1599096298
Boa Vista,2.82,-60.67,80.6,74,40,5.82,BR,1599096298
Puerto Escondido,15.85,-97.07,82.4,61,40,6.93,MX,1599096188
Talara,-4.58,-81.27,62.29,82,2,20.83,PE,1599096299
Tabuk,17.42,121.44,82.92,73,100,3.31,PH,1599096299
Atuona,-9.8,-139.03,78.96,77,2,22.82,PF,1599096299
Mahon,39.89,4.27,66.2,72,0,4.7,ES,1599096299
Buşayrā,30.74,35.61,68.2,62,0,3.94,JO,1599096300
Ancud,-41.87,-73.82,48.0,93,100,1.01,CL,1599096300
Ubauro,28.17,69.73,85.95,56,0,1.05,PK,1599096300
Ust-Nera,64.57,143.2,51.15,56,91,1.7,RU,1599096300
Dikson,73.51,80.55,40.89,84,2,9.89,RU,1599096300
Midrand,-25.96,28.14,51.01,87,0,9.17,ZA,1599096301
Vestmannaeyjar,63.44,-20.27,50.68,89,100,5.41,IS,1599096301
Rocha,-34.48,-54.33,60.73,93,100,13.11,UY,1599096301
Quatre Cocos,-20.21,57.76,69.01,94,75,3.36,MU,1599096301
Xifeng,42.74,124.72,62.2,95,100,8.5,CN,1599096302
Ola,59.58,151.28,56.3,62,25,1.07,RU,1599096302
Azare,11.68,10.19,73.8,85,97,6.24,NG,1599096302
Merced,37.17,-120.75,87.8,35,1,10.29,US,1599096302
Vestmanna,62.16,-7.17,51.8,100,42,12.75,FO,1599096302
Riverton,40.52,-111.94,82.4,20,1,10.29,US,1599096303
Lorengau,-2.02,147.27,86.13,64,22,5.95,PG,1599096303
Hobyo,5.35,48.53,76.24,83,100,20.83,SO,1599096303
Kilindoni,-7.91,39.67,76.39,75,0,9.26,TZ,1599096303
‘Āhuimanu,21.44,-157.84,87.8,62,40,11.41,US,1599096304
Lesosibirsk,58.24,92.48,52.32,96,100,7.43,RU,1599096304
Lamar,33.67,-95.58,75.2,94,1,4.7,US,1599096304
Yulara,-25.24,130.99,75.2,16,0,10.29,AU,1599096304
Rawson,-43.3,-65.1,53.74,46,3,10.87,AR,1599096304
Khasan,42.43,130.64,70.63,95,100,31.0,RU,1599096305
Lata,40.16,-8.33,62.01,93,0,2.24,PT,1599096305
Saint-Augustin,51.23,-58.65,54.28,90,3,14.58,CA,1599096305
Fomboni,-12.28,43.74,76.68,77,0,10.47,KM,1599096305
Berlevåg,70.86,29.09,53.13,72,100,17.87,NO,1599096306
Camacha,33.08,-16.33,71.6,73,40,5.82,PT,1599096306
Amahai,-3.33,128.92,81.93,78,81,2.15,ID,1599096306
Benguela,-12.58,13.41,68.23,83,86,1.97,AO,1599096306
San Pedro de Ycuamandiyú,-24.09,-57.08,60.57,62,0,3.8,PY,1599096307
Saint-Raphaël,19.43,-72.2,75.22,89,0,4.45,HT,1599096307
Yellowknife,62.46,-114.35,53.6,50,40,13.87,CA,1599096115
Waingapu,-9.66,120.26,84.52,61,97,13.38,ID,1599096276
Makīnsk,52.63,70.42,51.94,82,100,17.52,KZ,1599096307
Vazhiny,60.96,34.02,48.31,93,58,5.19,RU,1599096307
Constitución,-35.33,-72.42,48.72,84,78,11.03,CL,1599096308
Bukama,-9.2,25.85,71.62,35,0,1.79,CD,1599096308
Gagino,55.23,45.03,46.58,86,0,6.33,RU,1599096308
Lompoc,34.64,-120.46,64.4,72,1,13.87,US,1599096218
Alice Springs,-23.7,133.88,78.8,22,0,8.05,AU,1599096229
Cayenne,4.93,-52.33,78.8,88,0,2.24,GF,1599096309
Natal,-5.79,-35.21,75.2,83,40,9.17,BR,1599096068
Sucre,-19.03,-65.26,56.5,60,1,6.82,BO,1599096278
Kieta,-6.22,155.63,85.95,62,1,4.5,PG,1599096309
College,64.86,-147.8,57.2,58,75,4.7,US,1599096107
Bathsheba,13.22,-59.52,78.8,83,75,29.97,BB,1599096309
Muros,42.78,-9.06,64.0,81,0,1.01,ES,1599096310
Dubbo,-32.25,148.62,73.4,46,19,21.92,AU,1599096305
Igarka,67.47,86.58,46.9,74,43,7.43,RU,1599096310
Ceres,37.59,-120.96,86.0,35,1,11.41,US,1599096310
Flinders,-34.58,150.86,75.99,49,44,7.0,AU,1599096310
Pauini,-7.71,-66.98,81.7,51,59,1.03,BR,1599096311
Havelock,34.88,-76.9,84.99,83,40,6.93,US,1599096311
Marrakesh,31.63,-8.01,75.2,50,0,3.36,MA,1599096311
Rapid Valley,44.06,-103.15,87.8,10,1,16.11,US,1599096311
Bilibino,68.05,166.44,41.67,64,96,11.61,RU,1599096312
Parabel',58.7,81.48,54.68,98,100,8.55,RU,1599096312
Līsakovsk,52.54,62.49,51.51,72,29,16.49,KZ,1599096312
Sept-Îles,50.2,-66.38,55.0,100,90,8.05,CA,1599096312
Mahébourg,-20.41,57.7,68.0,94,75,3.36,MU,1599096312
Bekhtery,46.25,32.29,69.8,64,100,4.47,UA,1599096313
Itarema,-2.92,-39.92,80.6,69,1,6.93,BR,1599096313
Oneonta,42.45,-75.06,71.01,76,98,7.52,US,1599096313
Kavieng,-2.57,150.8,84.61,64,100,4.59,PG,1599096313
Toamasina,-18.17,49.38,62.6,93,20,5.82,MG,1599096314
Necochea,-38.55,-58.74,46.0,95,100,5.53,AR,1599096314
Constantine,36.37,6.61,62.6,82,40,2.73,DZ,1599096314
Charter Township of Clinton,42.59,-82.92,73.99,56,75,5.82,US,1599096314
Toledo,39.83,-4.0,75.99,26,0,7.94,ES,1599096315
Buala,-8.14,159.59,84.88,75,6,10.13,SB,1599096315
Ilhabela,-23.78,-45.36,70.34,89,82,11.18,BR,1599096315
Kysyl-Syr,63.9,122.76,52.99,86,100,6.15,RU,1599096315
Araouane,18.9,-3.53,91.83,41,99,14.41,ML,1599096315
Pangody,65.85,74.49,43.92,86,100,11.34,RU,1599096316
Dvinskoy Bereznik,62.86,42.71,45.43,87,100,2.39,RU,1599096316
Faanui,-16.48,-151.75,77.65,80,63,19.3,PF,1599096316
Klaksvík,62.23,-6.59,51.8,100,6,12.75,FO,1599096316
Airai,-8.93,125.41,75.94,38,55,5.32,TL,1599096317
Guerrero Negro,27.98,-114.06,75.38,69,0,16.49,MX,1599096317
Nagato,34.38,131.2,87.8,58,75,23.04,JP,1599096317
Almazar,40.32,69.01,71.6,35,75,6.71,UZ,1599096317
Laguna,38.42,-121.42,86.0,39,1,8.05,US,1599096052
Bambous Virieux,-20.34,57.76,69.01,94,75,3.36,MU,1599096318
Youghal,51.95,-7.85,62.01,93,75,9.17,IE,1599096318
Launceston,-41.45,147.17,57.99,71,75,20.8,AU,1599096318
Batagay,67.63,134.63,57.04,40,0,3.62,RU,1599096318
Gimli,50.63,-96.99,55.0,99,100,4.74,CA,1599096294
Kenai,60.55,-151.26,53.6,87,90,8.05,US,1599096318
Isangel,-19.55,169.27,75.2,64,75,11.41,VU,1599096319
Port Lincoln,-34.73,135.87,58.37,57,89,22.08,AU,1599096288
Hong Kong,22.29,114.16,91.0,66,0,4.0,HK,1599096114
Östersund,63.18,14.64,48.2,87,0,8.05,SE,1599096319
Kaputa,-8.47,29.66,67.46,45,0,1.99,ZM,1599096319
Nanortalik,60.14,-45.24,43.52,66,0,7.11,GL,1599096320
Belmonte,-15.86,-38.88,73.4,69,20,6.93,BR,1599096320
Cockburn Town,21.46,-71.14,83.59,81,0,20.49,TC,1599096310
Hohhot,40.81,111.65,59.0,51,0,2.24,CN,1599096320
Solhan,38.96,41.03,64.06,43,0,4.59,TR,1599096320
Kalmunai,7.42,81.82,79.21,79,77,2.06,LK,1599096320
Gravdal,68.12,13.5,56.03,70,100,13.33,NO,1599096321
Dul'durga,50.68,113.59,57.99,67,13,3.49,RU,1599096321
Mar del Plata,-38.0,-57.56,46.99,100,90,13.87,AR,1599096321
Pochutla,15.74,-96.47,82.0,73,1,4.23,MX,1599096321
Lujiang,31.26,117.28,80.6,61,0,6.71,CN,1599096322
Øksfjord,70.24,22.35,55.4,71,100,14.99,NO,1599096322
Shitanjing,39.23,106.34,67.12,25,0,3.71,CN,1599096312
São João da Barra,-21.64,-41.05,71.44,86,0,9.1,BR,1599096322
Aykhal,66.0,111.5,51.8,93,75,4.47,RU,1599096322
Road Town,18.42,-64.62,84.0,83,0,13.0,VG,1599096279
Andros Town,24.7,-77.77,86.0,74,20,11.41,BS,1599096323
Aracati,-4.56,-37.77,78.91,71,100,15.21,BR,1599096323
Oktyabr'skiy,54.48,53.47,43.59,89,0,5.73,RU,1599096323
Verkhoyansk,67.54,133.38,56.12,42,39,3.04,RU,1599096324
Tacarigua,10.09,-67.92,70.95,91,100,1.99,VE,1599096324
Hokitika,-42.72,170.97,51.82,49,0,4.41,NZ,1599096324
Kandi,11.13,2.94,71.08,96,100,2.06,BJ,1599096324
Tetiz,20.97,-89.93,81.0,83,75,10.29,MX,1599096324
General Roca,-39.03,-67.58,51.8,57,0,3.36,AR,1599096325
Inírida,3.87,-67.92,72.12,97,83,2.39,CO,1599096325
Silver City,32.77,-108.28,86.0,23,1,4.7,US,1599096127
Norman Wells,65.28,-126.83,51.8,93,75,5.82,CA,1599096268
Trairi,-3.28,-39.27,77.47,80,42,13.06,BR,1599096325
Laas,46.62,10.7,51.01,100,8,4.7,IT,1599096326
Matveyevka,52.15,56.18,50.0,76,40,15.66,RU,1599096326
Bima,-8.47,118.72,87.12,59,26,4.9,ID,1599096326
Harnai,30.1,67.94,78.73,45,0,0.43,PK,1599096326
Kautokeino,69.01,23.04,46.02,90,59,14.05,NO,1599096326
Narasannapeta,18.42,84.05,79.83,84,75,3.8,IN,1599096327
Sikasso,10.92,-7.0,72.03,94,100,4.45,ML,1599096327
Olafsvik,64.89,-23.71,46.09,78,99,31.52,IS,1599096327
Maragogi,-9.01,-35.22,72.84,81,5,9.28,BR,1599096327
San Policarpo,12.18,125.51,84.83,72,100,5.64,PH,1599096328
Suratgarh,29.32,73.9,87.3,59,58,5.79,IN,1599096328
San Quintín,30.48,-115.95,70.75,77,0,11.68,MX,1599096328
Tanete,-3.94,119.78,85.98,61,34,12.26,ID,1599096328
Karratha,-20.74,116.85,80.73,17,0,12.8,AU,1599096328
Rognan,67.1,15.39,60.01,67,0,13.87,NO,1599096329
Srednekolymsk,67.45,153.68,46.42,59,27,8.75,RU,1599096329
Lagoa,39.05,-27.98,72.95,79,1,5.21,PT,1599096329
Amos,48.57,-78.12,61.0,82,40,9.17,CA,1599096329
Loviisa,60.46,26.23,55.99,94,84,9.95,FI,1599096329
Eyl,7.98,49.82,77.04,73,10,17.45,SO,1599096330
Kahului,20.89,-156.47,87.8,55,40,24.16,US,1599096302
Santo Domingo,18.5,-69.99,80.6,83,20,6.93,DO,1599096180
Balkhash,46.84,74.98,69.8,30,40,11.18,KZ,1599096330
Polovinnoye,54.79,65.99,46.09,78,0,14.97,RU,1599096331
Richards Bay,-28.78,32.04,63.52,71,0,18.61,ZA,1599096331
Kualakapuas,-3.01,114.39,77.0,94,40,4.7,ID,1599096331
Kinsale,51.71,-8.53,62.01,93,75,9.17,IE,1599096264
Mayumba,-3.43,10.66,73.74,89,100,8.7,GA,1599096331
Corn Island,12.17,-83.04,83.3,67,100,6.64,NI,1599096332
Aklavik,68.22,-135.01,51.8,87,75,1.34,CA,1599096332
Mindelo,16.89,-24.98,78.8,74,40,14.99,CV,1599096332
Mbandaka,0.05,18.26,70.34,87,94,2.19,CD,1599096332
Clyde River,70.47,-68.59,41.0,86,90,11.41,CA,1599096332
Acaraú,-2.89,-40.12,80.6,69,0,6.93,BR,1599096333
Los Llanos de Aridane,28.66,-17.92,69.8,83,2,9.17,ES,1599096333
Mariestad,58.71,13.82,55.99,90,13,3.94,SE,1599096333
Serenje,-13.23,30.24,53.51,91,53,7.4,ZM,1599096333
Halmstad,56.67,12.86,50.0,93,50,2.24,SE,1599096334
Chapais,49.78,-74.85,53.6,100,75,9.17,CA,1599096334
Rio Grande,-32.03,-52.1,62.01,96,99,1.01,BR,1599096334
Raja,8.46,25.68,67.62,97,100,4.23,SS,1599096310
Severo-Kuril'sk,50.68,156.12,56.95,80,99,14.7,RU,1599096334
Bjørnevatn,69.67,29.98,51.8,76,100,25.28,NO,1599096335
Tambopata,-12.73,-69.18,74.5,72,7,2.68,PE,1599096335
Olmos,-5.98,-79.75,62.01,78,1,1.01,PE,1599096335
Russell,32.35,-85.2,84.2,88,1,4.23,US,1599096335
Meadow Lake,34.8,-106.54,84.2,16,1,10.29,US,1599096336
Ishigaki,24.34,124.16,87.8,84,75,10.29,JP,1599096336
Prince George,53.92,-122.75,62.6,51,1,3.36,CA,1599096336
Troitskiy,57.06,63.75,42.84,89,0,9.37,RU,1599096337
Hay River,60.82,-115.8,55.4,62,40,5.82,CA,1599096337
Raudeberg,61.99,5.14,63.0,56,98,22.59,NO,1599096337
Derbent,42.07,48.29,73.11,82,80,5.55,RU,1599096337
Fort Atkinson,42.93,-88.84,70.0,57,0,3.83,US,1599096338
Eišiškės,54.17,25.0,59.0,100,75,4.7,LT,1599096338
Kudahuvadhoo,2.67,72.89,82.08,76,100,16.73,MV,1599096338
Mingyue,43.11,128.92,63.99,92,100,6.64,CN,1599096339
Uglovskoye,51.36,80.19,70.11,31,2,11.81,RU,1599096339
Wrexham,53.0,-3.0,64.99,82,100,4.0,GB,1599096339
São Filipe,14.9,-24.5,78.13,85,68,13.71,CV,1599096339
Porto-Novo,6.5,2.6,77.0,94,90,13.87,BJ,1599096340
Alpena,45.06,-83.43,62.6,72,1,4.7,US,1599096340
Onega,63.91,38.14,50.18,72,100,5.12,RU,1599096340
Santa Maria,-29.68,-53.81,64.4,82,40,11.41,BR,1599096285
Bac Lieu,9.29,105.72,83.37,76,100,7.72,VN,1599096089
Verāval,20.9,70.37,79.23,85,100,6.06,IN,1599096341
Ajdabiya,30.76,20.23,78.91,49,0,12.01,LY,1599096341
Sovetskiy,61.36,63.58,44.04,77,55,10.78,RU,1599096341
Zipaquirá,5.02,-74.0,53.6,93,75,2.24,CO,1599096307
Diré,12.28,-10.97,72.27,97,100,2.28,ML,1599096342
Manyana,-23.4,21.72,59.7,73,8,4.23,BW,1599096342
Staraya Akkermanovka,51.25,58.24,51.8,81,46,13.42,RU,1599096342
Meulaboh,4.14,96.13,77.79,75,100,1.95,ID,1599096342
Saint George,37.1,-113.58,98.6,10,1,13.87,US,1599096046
Chippewa Falls,44.94,-91.39,71.01,46,1,8.05,US,1599096307
Saldanha,-33.01,17.94,57.2,93,2,9.17,ZA,1599096343
Sur,22.57,59.53,83.23,54,99,2.82,OM,1599096343
Ahipara,-35.17,173.17,56.84,64,62,17.27,NZ,1599096183
Duminichi,53.93,35.11,56.86,82,19,10.16,RU,1599096343
Villazón,-22.09,-65.59,44.91,30,0,14.45,BO,1599096343
Ranong,9.97,98.63,78.8,94,40,1.61,TH,1599096344
Moranbah,-22.0,148.05,70.47,54,100,11.61,AU,1599096344
Ust-Maya,60.42,134.53,59.4,69,73,3.8,RU,1599096344
Ozinki,51.18,49.68,55.42,72,0,12.84,RU,1599096344
Colborne,44.0,-77.88,69.8,73,75,6.93,CA,1599096345
Mount Isa,-20.73,139.5,86.0,19,0,12.75,AU,1599096345
Nantucket,41.28,-70.1,69.8,94,90,13.87,US,1599096267
Jaruco,23.04,-82.01,75.2,100,40,2.24,CU,1599096345
Almeirim,-1.52,-52.58,79.65,58,0,3.44,BR,1599096345
Manggar,-2.88,108.27,80.33,82,100,13.69,ID,1599096346
Mayo,38.89,-76.51,82.0,100,90,6.93,US,1599096296
Sarangani,5.4,125.46,84.96,71,95,9.84,PH,1599096346
Smolenka,52.14,113.5,46.4,100,90,2.24,RU,1599096346
Henties Bay,-22.12,14.28,48.99,88,0,5.3,NA,1599096347
Chornukhy,50.27,32.94,69.06,46,0,9.1,UA,1599096347
Zhigansk,66.77,123.37,52.32,72,100,19.24,RU,1599096324
Abhā,18.22,42.51,66.2,68,54,4.7,SA,1599096101
Pareora,-44.49,171.21,57.99,42,0,4.0,NZ,1599096347
Punalūr,9.0,76.93,78.8,88,40,2.24,IN,1599096347
Kundiawa,-6.02,144.97,74.71,68,10,1.7,PG,1599096348
Bowmore,34.94,-79.3,86.0,83,1,4.7,US,1599096348
Venustiano Carranza,19.43,-99.1,75.2,31,40,19.46,MX,1599096348
Freeport,40.66,-73.58,75.99,88,90,10.29,US,1599096135
Gornopravdinsk,60.05,69.9,43.11,91,86,10.18,RU,1599096349
Bandarbeyla,9.49,50.81,77.4,75,1,20.18,SO,1599096349
Loandjili,-4.76,11.86,73.09,85,95,6.8,CG,1599096349
George Town,5.41,100.34,82.4,88,20,1.12,MY,1599096121
Fenoarivo,-18.93,47.44,51.8,100,20,3.36,MG,1599096349
Miracema do Tocantins,-9.56,-48.4,78.1,33,0,3.58,BR,1599096350
Roald,62.58,6.13,62.6,59,0,9.17,NO,1599096350
Leningradskiy,69.38,178.42,36.36,83,87,4.76,RU,1599096350
Geraldton,-28.77,114.6,59.0,82,90,9.17,AU,1599096350
Gazli,40.13,63.45,72.25,23,0,7.87,UZ,1599096350
Wai,17.93,73.9,71.51,87,95,1.66,IN,1599096351
Kongolo,-5.38,27.0,75.07,42,9,3.67,CD,1599096351
Soe,-9.86,124.28,80.76,42,0,7.99,ID,1599096351
Codrington,-38.27,141.97,53.26,83,100,22.37,AU,1599096339
Knysna,-34.04,23.05,60.8,48,0,9.17,ZA,1599096351
Kaduqli,11.02,29.72,71.44,91,3,2.53,SD,1599096352
Tokur,53.13,132.9,57.09,91,100,1.88,RU,1599096352
Sechura,-5.56,-80.82,62.31,75,0,18.45,PE,1599096352
Dāmghān,36.17,54.35,59.02,34,0,1.25,IR,1599096352
Suoyarvi,62.08,32.35,50.74,88,95,5.79,RU,1599096353
Ormara,25.21,64.64,79.66,88,12,6.46,PK,1599096353
Vanavara,60.34,102.28,49.78,87,9,9.86,RU,1599096353
Gushikawa,26.35,127.87,87.8,79,1,5.82,JP,1599096353
Quelimane,-17.88,36.89,71.6,83,40,3.36,MZ,1599096353
Córdoba,-31.41,-64.18,48.0,93,75,4.7,AR,1599096354
Sondrio,46.17,9.87,61.0,100,0,1.12,IT,1599096354
Fukuechō,32.69,128.84,80.6,74,40,13.87,JP,1599096354
Patan,27.67,85.33,71.6,94,75,0.81,NP,1599096354
Pangkalanbuun,-2.68,111.62,80.28,85,100,2.48,ID,1599096355
Wairoa,-39.03,177.37,52.0,63,100,15.01,NZ,1599096355
Severo-Yeniseyskiy,60.37,93.04,46.29,93,100,3.29,RU,1599096355
Sawākin,19.11,37.33,88.63,53,0,7.02,SD,1599096355
Taoudenni,22.68,-3.98,97.95,25,89,10.49,ML,1599096356
Ginda,30.69,78.49,78.8,94,90,2.33,IN,1599096356
George Town,5.41,100.34,84.2,88,20,2.24,MY,1599096356
Grants,35.15,-107.85,84.2,9,1,8.05,US,1599096356
‘Ewa Beach,21.32,-158.01,87.8,51,75,8.05,US,1599096188
Taltal,-25.4,-70.48,54.9,72,0,3.42,CL,1599096357
Nizhniy Kuranakh,58.84,125.49,64.08,46,0,4.59,RU,1599096357
Tuatapere,-46.13,167.68,56.95,52,100,3.67,NZ,1599096357
Cruzeiro do Sul,-29.51,-51.99,66.99,96,4,0.56,BR,1599096357
Maumere,-8.62,122.21,84.33,56,31,3.27,ID,1599096358
At-Bashi,41.17,75.81,57.88,53,100,4.47,KG,1599096358
Ilulissat,69.22,-51.1,39.2,81,100,4.7,GL,1599096358
Vila Velha,-20.33,-40.29,68.0,94,40,2.24,BR,1599096283
Scarborough,54.28,-0.4,59.0,93,99,3.0,GB,1599096358
Mosquera,4.71,-74.23,53.6,93,75,2.24,CO,1599096194
Taixing,32.17,120.01,76.59,77,0,8.68,CN,1599096359
Mattru,7.62,-11.83,71.6,94,76,1.95,SL,1599096359
Neuquén,-38.95,-68.06,51.8,57,11,3.36,AR,1599096359
Vesele,47.01,34.91,70.27,44,0,4.16,UA,1599096359
Primorsko-Akhtarsk,46.05,38.17,73.78,52,0,6.87,RU,1599096360
Cap Malheureux,-19.98,57.61,69.01,88,78,1.99,MU,1599096360
Kungurtug,50.6,97.52,55.44,64,0,1.19,RU,1599096360
Salalah,17.02,54.09,77.0,100,90,5.82,OM,1599096360
Redmond,47.67,-122.12,78.01,63,0,1.01,US,1599096360
Simbahan,6.3,120.58,83.7,70,81,4.41,PH,1599096361
Vinh,18.67,105.67,83.86,72,15,4.29,VN,1599096361
Blagoyevo,63.37,47.92,39.94,93,0,2.33,RU,1599096361
Edd,13.93,41.69,89.49,62,36,3.58,ER,1599096361
Santa Cruz de Tenerife,28.47,-16.25,72.0,40,8,4.7,ES,1599096362
Mitsamiouli,-11.38,43.28,75.92,68,0,7.96,KM,1599096362
Erzin,36.96,36.2,79.0,92,0,5.99,TR,1599096362
Denpasar,-8.65,115.22,82.4,100,40,14.99,ID,1599096194
Mucurapo,10.67,-61.53,81.0,83,20,9.28,TT,1599096244
Merauke,-8.47,140.33,83.28,72,18,12.59,ID,1599096363
Arman',59.7,150.17,58.77,56,33,1.59,RU,1599096363
Şabyā,17.15,42.63,87.8,58,40,5.82,SA,1599096363
Najrān,17.49,44.13,80.6,39,94,4.7,SA,1599096363
North Augusta,33.5,-81.97,87.8,66,1,4.7,US,1599096089
Orchard Homes,46.86,-114.05,80.6,28,1,13.87,US,1599096364
Huron,41.15,-82.55,72.0,87,100,6.38,US,1599096364
Shakhtinsk,49.71,72.59,53.6,81,0,2.24,KZ,1599096364
Manuk Mangkaw,4.8,119.85,84.38,70,100,6.8,PH,1599096364
Goma,-1.68,29.22,63.23,50,53,2.73,CD,1599096364
Waipawa,-41.41,175.52,53.01,57,0,14.99,NZ,1599096365
Vanimo,-2.67,141.3,86.59,60,99,7.25,PG,1599096365
Tomé,-36.62,-72.95,50.0,81,75,6.93,CL,1599096365
Oistins,13.07,-59.53,78.8,83,75,29.97,BB,1599096365
Ambilobe,-13.2,49.05,63.16,89,3,2.86,MG,1599096366
Montanha,-18.13,-40.36,66.13,88,0,6.11,BR,1599096366
Carutapera,-1.2,-46.02,76.64,86,30,5.55,BR,1599096315
Kavaratti,10.57,72.64,80.89,80,100,13.02,IN,1599096366
Verkhnevilyuysk,63.45,120.32,55.81,87,81,7.09,RU,1599096366
Svolvær,68.23,14.57,54.64,70,30,10.54,NO,1599096367
Safi,32.3,-9.24,67.82,90,5,7.78,MA,1599096367
Faya,18.39,42.45,66.2,68,23,4.7,SA,1599096367
Wenling,28.37,121.36,86.0,69,8,7.45,CN,1599096367
Wadena,46.44,-95.14,69.8,63,1,6.93,US,1599096367
Goya,-29.14,-59.26,48.49,95,0,4.88,AR,1599096368
Sydney,-33.87,151.21,82.4,24,0,19.46,AU,1599096278
Atbasar,51.8,68.33,53.8,80,100,18.01,KZ,1599096368
Nhulunbuy,-12.23,136.77,82.4,65,40,14.99,AU,1599096368
Constitución,-35.33,-72.42,48.72,84,78,11.03,CL,1599096308
Blackwater,-23.58,148.88,73.38,48,56,13.65,AU,1599096369
Sandwick,60.0,-1.25,55.4,93,100,14.99,GB,1599096369
Garoua,9.3,13.4,74.68,86,100,2.68,CM,1599096369
Ürümqi,43.8,87.6,73.4,35,60,8.95,CN,1599096252
Tawao,4.25,117.89,84.2,79,20,1.12,MY,1599096369
Straumen,63.87,11.3,59.0,54,0,18.34,NO,1599096370
Jumla,29.27,82.18,64.18,67,75,1.68,NP,1599096370
Osuna,37.24,-5.11,72.0,68,0,4.7,ES,1599096370
Half Moon Bay,37.46,-122.43,71.6,82,90,6.93,US,1599096370
Zhob,31.34,69.45,71.73,69,0,3.6,PK,1599096371
Montrose,38.42,-108.27,82.4,20,1,8.05,US,1599096077
Shirokiy,49.76,129.52,65.7,86,100,6.53,RU,1599096371
Yumen,40.28,97.2,70.07,21,0,6.93,CN,1599096371
Calama,-22.47,-68.93,50.0,15,0,8.05,CL,1599096372
Aztec,36.82,-107.99,87.8,10,1,13.87,US,1599096211
Liwale,-9.77,37.93,66.11,85,69,3.24,TZ,1599096372
Atar,20.52,-13.05,83.1,62,52,18.59,MR,1599096372
Kopychyntsi,49.1,25.91,62.01,75,100,1.01,UA,1599096372
Tsimmerbude,54.67,20.13,59.0,93,75,6.71,RU,1599096373
Broken Hill,-31.95,141.43,66.2,29,51,6.93,AU,1599096373
Bethel,41.37,-73.41,73.4,94,20,6.93,US,1599096373
Muhafazat Lahij,13.17,44.58,86.95,49,0,1.07,YE,1599096373
Port Blair,11.67,92.75,83.1,78,100,10.51,IN,1599096373
Pandan,14.05,124.17,87.58,64,100,0.13,PH,1599096374
Presidencia Roque Sáenz Peña,-26.79,-60.44,48.15,91,0,1.99,AR,1599096374
Imuris,30.78,-110.87,82.96,60,51,1.5,MX,1599096374
Mátranovák,48.04,19.98,50.0,92,0,2.04,HU,1599096374
Egvekinot,66.32,-179.17,38.52,76,100,2.21,RU,1599096375
Wasilla,61.58,-149.44,57.2,71,90,4.7,US,1599096357
Vikhorevka,56.12,101.16,53.6,87,75,8.95,RU,1599096375
La Pila,22.05,-100.87,78.8,21,20,12.75,MX,1599096375
Savé,8.04,2.49,71.31,98,100,4.76,BJ,1599096375
Berbérati,4.26,15.79,68.0,96,78,0.49,CF,1599096376
Ibirité,-20.02,-44.06,68.0,59,0,5.26,BR,1599096281
Point Fortin,10.18,-61.68,81.0,83,20,14.12,TT,1599096376
Vershino-Darasunskiy,52.35,115.52,58.35,67,0,3.49,RU,1599096376
Barra do Garças,-15.89,-52.26,75.25,27,97,0.51,BR,1599096376
Tupik,54.43,119.93,59.95,66,0,3.24,RU,1599096377
Jalu,29.03,21.55,80.96,23,0,5.23,LY,1599096377
Zhongshu,24.52,103.77,68.52,84,65,1.43,CN,1599096377
Nimāparha,20.07,86.02,80.6,94,40,2.89,IN,1599096377
Panabá,21.28,-88.27,79.43,88,89,9.98,MX,1599096378
Sühbaatar,50.23,106.21,60.31,76,96,4.65,MN,1599096378
Puri,19.8,85.85,80.6,94,40,4.88,IN,1599096378
Funtua,11.52,7.31,68.05,97,91,5.12,NG,1599096378
Ambulu,-8.35,113.61,80.35,76,13,0.76,ID,1599096379
Puerto Nariño,-3.77,-70.38,78.8,94,55,1.72,CO,1599096379
Yar-Sale,66.83,70.83,44.6,94,100,13.27,RU,1599096379
Qaqortoq,60.72,-46.03,44.6,48,0,4.7,GL,1599096379
Krasnosel'kup,65.7,82.47,44.82,79,100,7.63,RU,1599096379
Innisfail,-17.53,146.03,73.99,63,90,3.0,AU,1599096380
Heihe,50.24,127.49,60.8,87,40,8.95,CN,1599096380
Avenal,36.0,-120.13,93.2,28,75,11.41,US,1599096380
Pathein,16.78,94.73,80.64,83,44,2.71,MM,1599096376
Umluj,25.02,37.27,86.49,50,10,7.63,SA,1599096380
Dalmau,26.07,81.03,78.15,91,88,4.92,IN,1599096381
Fujin,47.26,132.03,65.48,98,100,11.86,CN,1599096381
Mankato,44.16,-94.0,70.0,73,1,11.41,US,1599096263
Yatou,37.15,122.38,74.07,71,0,20.24,CN,1599096381
Bad Wurzach,47.9,9.9,50.0,93,32,2.24,DE,1599096381
Slave Lake,55.28,-114.77,57.2,67,90,10.29,CA,1599096242
Vallenar,-28.57,-70.76,56.82,48,0,1.32,CL,1599096382
Blagoveshchensk,50.27,127.53,60.8,87,40,8.95,RU,1599096382
Kpandae,8.47,-0.01,72.19,90,100,0.63,GH,1599096382
Manicoré,-5.81,-61.3,78.8,88,0,0.89,BR,1599096382
Lavrentiya,65.58,-171.0,41.58,74,100,8.28,RU,1599096383
Presidente Médici,-11.18,-61.9,83.59,22,12,3.83,BR,1599096383
Key Largo,25.09,-80.45,86.0,1,0,8.01,US,1599096383
Acapulco de Juárez,16.86,-99.89,84.2,74,20,3.36,MX,1599096279
Zhalantun,48.0,122.72,60.42,74,100,11.65,CN,1599096384
Batagay-Alyta,67.8,130.41,51.31,57,4,4.68,RU,1599096384
Coos Bay,43.37,-124.22,73.0,87,75,10.29,US,1599096384
Alenquer,-1.94,-54.74,84.2,74,20,8.05,BR,1599096384
Kaeo,-35.1,173.78,57.0,8,0,7.0,NZ,1599096270
Esim,4.87,-2.24,75.49,89,100,9.35,GH,1599096385
Kikwit,-5.04,18.82,77.61,68,100,1.86,CD,1599096385
Batangafo,7.3,18.28,70.75,97,100,3.94,CF,1599096385
Tarko-Sale,64.92,77.78,44.01,82,100,10.6,RU,1599096385
Kobelyaky,49.15,34.2,69.8,44,0,5.7,UA,1599096385
Eenhana,-17.47,16.33,66.2,16,37,5.82,NA,1599096386
Marsh Harbour,26.54,-77.06,84.51,80,72,12.95,BS,1599096386
Naze,28.37,129.48,87.8,74,75,6.93,JP,1599096386
Gretna,29.91,-90.05,86.0,88,20,8.05,US,1599096386
Robe,-37.18,139.75,55.94,64,25,33.31,AU,1599096387
Caravelas,-17.71,-39.25,70.59,87,13,9.26,BR,1599096387
Kuusamo,65.97,29.18,42.8,93,0,2.24,FI,1599096387
Mareeba,-17.0,145.43,82.4,48,40,16.11,AU,1599096387
Santa Isabel Rio Negro,-0.41,-65.02,76.69,84,84,2.08,BR,1599096107
Praia,14.92,-23.51,78.8,83,40,16.11,CV,1599096388
County Wicklow,53.0,-6.42,57.99,93,40,16.11,IE,1599096388
Jatāra,25.02,79.05,77.25,86,98,3.36,IN,1599096389
Port Hedland,-20.32,118.57,84.2,32,61,16.11,AU,1599096389
Glasgow,55.87,-4.26,57.0,87,40,9.17,GB,1599096389
Yacuiba,-22.04,-63.68,50.32,64,0,2.68,BO,1599096390
Lipari,38.47,14.95,73.99,79,0,3.0,IT,1599096390
Zirándaro de los Chávez,18.45,-100.98,80.01,73,0,1.79,MX,1599096390
Mizdah,31.45,12.98,70.81,93,7,15.9,LY,1599096390
Nova Serrana,-19.88,-44.98,65.12,63,0,8.16,BR,1599096390
Rāwah,34.48,41.91,89.29,16,0,11.43,IQ,1599096391
Oriximiná,-1.77,-55.87,82.35,58,0,3.38,BR,1599096391
Forsytheganj,52.63,29.73,63.1,81,100,3.96,BY,1599096391
Dodge City,37.75,-100.02,80.6,51,1,9.17,US,1599096391
Vágur,61.47,-6.81,53.46,93,50,23.76,FO,1599096392
Marawi,8.0,124.29,82.99,78,100,5.01,PH,1599096392
Mananara,-16.17,49.77,64.38,89,43,5.68,MG,1599096392
Cottonwood,34.74,-112.01,97.0,16,58,5.99,US,1599096392
Inongo,-1.95,18.27,70.7,81,87,5.59,CD,1599096393
Paamiut,61.99,-49.67,44.33,66,67,7.43,GL,1599096393
Tura,25.52,90.22,76.12,92,98,3.47,IN,1599096393
Naryan-Mar,67.67,53.09,41.27,89,95,7.65,RU,1599096393
Valdivia,-39.81,-73.25,46.4,93,75,4.7,CL,1599096394
Iquique,-20.22,-70.14,59.0,77,75,9.17,CL,1599096394
Chumikan,54.72,135.31,54.14,94,100,2.59,RU,1599096394
Salisbury,51.07,-1.8,62.01,93,100,10.29,GB,1599096394
Moses Lake,47.13,-119.28,91.4,22,1,11.41,US,1599096395
Storforshei,66.4,14.52,48.97,72,0,6.73,NO,1599096395
Korla,41.76,86.15,78.85,20,96,6.11,CN,1599096395
Vila,42.03,-8.16,61.0,81,0,1.01,PT,1599096395
San Antonio,29.42,-98.49,88.0,66,40,3.36,US,1599096143
Savannah Bight,16.45,-85.85,77.25,89,100,30.42,HN,1599096396
Chipinge,-20.19,32.62,51.67,100,43,4.03,ZW,1599096396
Linkuva,56.09,23.97,57.2,100,75,4.7,LT,1599096396
Oleksandrivka,48.96,32.23,71.1,38,100,1.1,UA,1599096397
Sombrio,-29.11,-49.62,62.91,88,0,7.11,BR,1599096397
Ruteng,-8.61,120.47,73.63,74,90,1.54,ID,1599096397
Morón,-34.65,-58.62,51.01,99,100,11.01,AR,1599096359
Leh,34.17,77.58,57.42,50,2,5.41,IN,1599096245
Along,28.17,94.77,77.32,81,37,0.31,IN,1599096397
Evensk,61.95,159.23,55.35,45,0,8.34,RU,1599096398
Wajir,1.75,40.06,69.78,78,0,9.8,KE,1599096398
Les Herbiers,46.87,-1.02,55.0,100,0,4.29,FR,1599096398
Ereymentau,51.62,73.1,59.22,76,85,10.33,KZ,1599096399
Pirgos,35.12,25.72,82.0,42,0,5.99,GR,1599096399
Chișinău,47.01,28.86,68.0,72,100,1.12,MD,1599096399
Geisenheim,49.98,7.97,52.0,81,1,3.36,DE,1599096322
Grafing,48.05,11.97,50.0,94,43,1.01,DE,1599096399
Qui Nhon,13.77,109.23,83.1,75,52,3.65,VN,1599096400
Tonstad,58.66,6.72,57.0,81,6,1.99,NO,1599096400
Shatsk,54.03,41.71,51.24,87,15,8.25,RU,1599096400
Caucayá,-0.19,-74.78,73.0,91,84,0.18,CO,1599096253
Sirte,31.21,16.59,77.86,83,0,14.09,LY,1599096400
Plastun,44.76,136.29,66.29,94,100,9.31,RU,1599096401
